site,site_name,locality_label,lat,lon
1,Edisto River,Estimated midpoint of mapped river in Figure 1,33.36,-80.67
2,Savannah River,Estimated midpoint of mapped river in Figure 1,32.83,-81.15
3,Ogeechee River,Estimated midpoint of mapped river in Figure 1,32.53,-81.37
4,Altamaha River,Estimated midpoint of mapped river in Figure 1,31.85,-81.94
5,Satilla River,Estimated midpoint of mapped river in Figure 1,31.22,-82.07
